{
    "type": "FeatureCollection",
    "name": "Baptistries in France",
    "features": [
      { "id": "01-01", "type": "Feature", "geometry": { "type": "Point", "coordinates": [0.180205, 43.940762] }, "properties": { "nr": "01", "booknr": "01", "confirmed": "true", "name": "Montréal (Gers)", "shortname": "Montréal" } },
      { "id": "02-01", "type": "Feature", "geometry": { "type": "Point", "coordinates": [7.724083, 47.541464] }, "properties": { "nr": "02", "booknr": "02", "confirmed": "true", "name": "Kaiseraugst (AG-Suisse)", "shortname": "Kaiseraugst" } },
      { "id": "03-01", "type": "Feature", "geometry": { "type": "Point", "coordinates": [-0.564160, 45.821582] }, "properties": { "nr": "03", "booknr": "03", "confirmed": "true", "name": "Le Douhet (Charente-Maritime)", "shortname": "Le Douhet" } },
      { "id": "04-01", "type": "Feature", "geometry": { "type": "Point", "coordinates": [4.768677, 44.393554] }, "properties": { "nr": "04", "booknr": "04", "confirmed": "true", "name": "La Garde-Adhémar (Drôme)", "shortname": "La Garde-Adhémar" } },
      { "id": "05-01", "type": "Feature", "geometry": { "type": "Point", "coordinates": [4.420251, 44.012909] }, "properties": { "nr": "05", "booknr": "05", "confirmed": "true", "name": "Uzès (Gard)", "shortname": "Uzès" } },
      { "id": "06-01", "type": "Feature", "geometry": { "type": "Point", "coordinates": [0.348555, 46.579688] }, "properties": { "nr": "06", "booknr": "06", "confirmed": "true", "name": "Poitiers (Vienne)", "shortname": "Poitiers" } },
      { "id": "07-01", "type": "Feature", "geometry": { "type": "Point", "coordinates": [-1.699209, 49.335898] }, "properties": { "nr": "07", "booknr": "07", "confirmed": "true", "name": "Portbail (Manche)", "shortname": "Portbail" } },
      { "id": "08-01", "type": "Feature", "geometry": { "type": "Point", "coordinates": [5.446797, 43.531408] }, "properties": { "nr": "08", "booknr": "08", "confirmed": "true", "name": "Aix-en-Provene (Bouches-du-Rhône", "shortname": "Aix-en-Provene" } },
      { "id": "09-01", "type": "Feature", "geometry": { "type": "Point", "coordinates": [6.736453, 43.433153] }, "properties": { "nr": "09", "booknr": "09", "confirmed": "true", "name": "Fréjus (Var)", "shortname": "Fréjus" } },
      { "id": "10-01", "type": "Feature", "geometry": { "type": "Point", "coordinates": [6.092591, 43.816196] }, "properties": { "nr": "10", "booknr": "10", "confirmed": "true", "name": "Riez (Alpes-de-Haute-Provence)", "shortname": "Riez" } },
      { "id": "11-01", "type": "Feature", "geometry": { "type": "Point", "coordinates": [5.145890, 43.997037] }, "properties": { "nr": "11", "booknr": "11", "confirmed": "true", "name": "Venasque (Vaucluse)", "shortname": "Venasque" } },
      { "id": "12-01", "type": "Feature", "geometry": { "type": "Point", "coordinates": [4.722391, 44.607528] }, "properties": { "nr": "12", "booknr": "12", "confirmed": "true", "name": "Meysse (Ardèche)", "shortname": "Meysse" } },
      { "id": "13-01", "type": "Feature", "geometry": { "type": "Point", "coordinates": [7.274565, 43.720024] }, "properties": { "nr": "13", "booknr": "13", "confirmed": "true", "name": "Nice (Alpes-Maritimes)", "shortname": "Nice" } },
      { "id": "14-01", "type": "Feature", "geometry": { "type": "Point", "coordinates": [7.599054, 43.792574] }, "properties": { "nr": "14", "booknr": "14", "confirmed": "true", "name": "Ventimille (Ligure-Italie)", "shortname": "Ventimille" } },
      { "id": "15-01", "type": "Feature", "geometry": { "type": "Point", "coordinates": [0.169678, 45.270953] }, "properties": { "nr": "15", "booknr": "15", "confirmed": "true", "name": "Aubeterre-sur-Dronne (Charente)", "shortname": "Aubeterre-sur-Dronne" } },
      { "id": "16-01", "type": "Feature", "geometry": { "type": "Point", "coordinates": [4.032701, 49.253362] }, "properties": { "nr": "16", "booknr": "16", "confirmed": "true", "name": "Reims (Marne)", "shortname": "Reims" } },
      { "id": "17-01", "type": "Feature", "geometry": { "type": "Point", "coordinates": [6.975577, 43.674835] }, "properties": { "nr": "17", "booknr": "17", "confirmed": "true", "name": "Château-neuf-de-Grasse (Alpes-Maritimes)", "shortname": "Château-neuf-de-Grasse" } },
      { "id": "18-01", "type": "Feature", "geometry": { "type": "Point", "coordinates": [5.731494, 45.192775] }, "properties": { "nr": "18", "booknr": "18", "confirmed": "true", "name": "Grenoble (Isère)", "shortname": "Grenoble" } },
      { "id": "19-01", "type": "Feature", "geometry": { "type": "Point", "coordinates": [4.827523, 45.760808] }, "properties": { "nr": "19", "booknr": "19", "confirmed": "true", "name": "Lyon (Rhône)", "shortname": "Lyon" } },
      { "id": "20-01", "type": "Feature", "geometry": { "type": "Point", "coordinates": [0.663731, 46.444330] }, "properties": { "nr": "20", "booknr": "20", "confirmed": "true", "name": "Civaux (Vienne)", "shortname": "Civaux" } },
      { "id": "21-01", "type": "Feature", "geometry": { "type": "Point", "coordinates": [3.885029, 45.046286] }, "properties": { "nr": "21", "booknr": "21", "confirmed": "true", "name": "Le Puy-en-Velay (Haute-Loire)", "shortname": "Le Puy-en-Velay" } },
      { "id": "22-01", "type": "Feature", "geometry": { "type": "Point", "coordinates": [5.922826, 45.571019] }, "properties": { "nr": "22", "booknr": "22", "confirmed": "true", "name": "Chambéry (Savoie)", "shortname": "Chambéry" } },
      { "id": "23-01", "type": "Feature", "geometry": { "type": "Point", "coordinates": [5.849549, 43.100020] }, "properties": { "nr": "23", "booknr": "23", "confirmed": "true", "name": "Six-Fours (Var)", "shortname": "Six-Fours" } },
      { "id": "24-01", "type": "Feature", "geometry": { "type": "Point", "coordinates": [3.156917, 46.986742] }, "properties": { "nr": "24", "booknr": "24", "confirmed": "true", "name": "Nevers (Nièvre)", "shortname": "Nevers" } },
      { "id": "25-01", "type": "Feature", "geometry": { "type": "Point", "coordinates": [3.789151, 49.376431] }, "properties": { "nr": "25", "booknr": "25", "confirmed": "true", "name": "Concevreux (Aisne)", "shortname": "Concevreux" } },
      { "id": "26-01", "type": "Feature", "geometry": { "type": "Point", "coordinates": [-0.250666, 43.703992] }, "properties": { "nr": "26", "booknr": "26", "confirmed": "true", "name": "Air-sur-Adour (Landes)", "shortname": "Air-sur-Adour" } },
      { "id": "27-01", "type": "Feature", "geometry": { "type": "Point", "coordinates": [1.088616, 43.223740] }, "properties": { "nr": "27", "booknr": "27", "confirmed": "true", "name": "Saint-Cizy (Haute-Garonne)", "shortname": "Saint-Cizy" } },
      { "id": "28-01", "type": "Feature", "geometry": { "type": "Point", "coordinates": [3.613267, 43.449638] }, "properties": { "nr": "28", "booknr": "28", "confirmed": "true", "name": "Loupian (Hérault)", "shortname": "Loupian" } },
      { "id": "29-01", "type": "Feature", "geometry": { "type": "Point", "coordinates": [1.081805, 46.214491] }, "properties": { "nr": "29", "booknr": "29", "confirmed": "true", "name": "Le Dorat (Haute-Vienne)", "shortname": "Le Dorat" } },
      { "id": "30-01", "type": "Feature", "geometry": { "type": "Point", "coordinates": [1.150293, 49.024389] }, "properties": { "nr": "30", "booknr": "30", "confirmed": "true", "name": "Evreux (Eure)", "shortname": "Evreux" } },
      { "id": "31-01", "type": "Feature", "geometry": { "type": "Point", "coordinates": [7.329769, 47.744558] }, "properties": { "nr": "31", "booknr": "31", "confirmed": "true", "name": "Moulhouse (Haut-Rhin)", "shortname": "Moulhouse" } },
      { "id": "32-01", "type": "Feature", "geometry": { "type": "Point", "coordinates": [-0.558473, 47.472353] }, "properties": { "nr": "32", "booknr": "32", "confirmed": "true", "name": "Angers (Maine-et-Loire)", "shortname": "Angers" } },
      { "id": "33-01", "type": "Feature", "geometry": { "type": "Point", "coordinates": [6.176085, 49.120186] }, "properties": { "nr": "33", "booknr": "33", "confirmed": "true", "name": "Metz (Moselle)", "shortname": "Metz" } },
      { "id": "34-01", "type": "Feature", "geometry": { "type": "Point", "coordinates": [1.489721, 45.837325] }, "properties": { "nr": "34", "booknr": "34", "confirmed": "true", "name": "Saint-Léonard-de-Noblat (Haute-Vienne)", "shortname": "Saint-Léonard-de-Noblat" } },
      { "id": "35-01", "type": "Feature", "geometry": { "type": "Point", "coordinates": [4.672843, 44.54428] }, "properties": { "nr": "35", "booknr": "35", "confirmed": "true", "name": "Le Thiel-Mélas (Ardèche)", "shortname": "Le Thiel-Mélas" } },
      { "id": "36-01", "type": "Feature", "geometry": { "type": "Point", "coordinates": [2.918684, 45.575514] }, "properties": { "nr": "36", "booknr": "36", "confirmed": "true", "name": "Chambon-sur-Lac (Puy-du-Dôme)", "shortname": "Chambon-sur-Lac" } },
      { "id": "37-01", "type": "Feature", "geometry": { "type": "Point", "coordinates": [7.494594, 48.560762] }, "properties": { "nr": "37", "booknr": "37", "confirmed": "true", "name": "Avolsheim (Bas-Rhin)", "shortname": "Avolsheim" } },
      { "id": "38-01", "type": "Feature", "geometry": { "type": "Point", "coordinates": [5.364770, 43.298970] }, "properties": { "nr": "38", "booknr": "38", "confirmed": "true", "name": "Marseille (Bouche-du-Rhône)", "shortname": "Marseille" } },
      { "id": "39-01", "type": "Feature", "geometry": { "type": "Point", "coordinates": [-1.565239, 47.212167] }, "properties": { "nr": "39", "booknr": "39", "confirmed": "true", "name": "Nantes (Loire-Atlantique)", "shortname": "Nantes" } },
      { "id": "40-01", "type": "Feature", "geometry": { "type": "Point", "coordinates": [4.889437, 44.931497] }, "properties": { "nr": "40", "booknr": "40", "confirmed": "true", "name": "Valence (Drôme)", "shortname": "Valence" } },
      { "id": "41-01", "type": "Feature", "geometry": { "type": "Point", "coordinates": [1.266743, 45.828739] }, "properties": { "nr": "41", "booknr": "41", "confirmed": "true", "name": "Limoges (Haute-Vienne)", "shortname": "Limoges" } },
      { "id": "42-01", "type": "Feature", "geometry": { "type": "Point", "coordinates": [3.384677, 45.293539] }, "properties": { "nr": "42", "booknr": "42", "confirmed": "true", "name": "Brioude (Haute-Loire)", "shortname": "Brioude" } },
      { "id": "43-01", "type": "Feature", "geometry": { "type": "Point", "coordinates": [6.447417, 43.529758] }, "properties": { "nr": "43", "booknr": "43", "confirmed": "true", "name": "Draguignan (Var)", "shortname": "Draguignan" } },
      { "id": "44-01", "type": "Feature", "geometry": { "type": "Point", "coordinates": [4.071239, 46.040217] }, "properties": { "nr": "44", "booknr": "44", "confirmed": "true", "name": "Roanne (Loire)", "shortname": "Roanne" } },
      { "id": "45-01", "type": "Feature", "geometry": { "type": "Point", "coordinates": [1.065925, 43.606548] }, "properties": { "nr": "45", "booknr": "45", "confirmed": "true", "name": "L'Isle-Jourdain (Gers)", "shortname": "L'Isle-Jourdain" } },
      { "id": "46-01", "type": "Feature", "geometry": { "type": "Point", "coordinates": [5.863181, 43.453394] }, "properties": { "nr": "46", "booknr": "46", "confirmed": "true", "name": "Saint-Maximin (Var)", "shortname": "Saint-Maximin" } },
      { "id": "47-01", "type": "Feature", "geometry": { "type": "Point", "coordinates": [3.72101, 43.697584] }, "properties": { "nr": "47", "booknr": "47", "confirmed": "false", "name": "Argelliers (Hérault) Aubeterre-sur-Dronn", "shortname": "Argelliers" } },
      { "id": "47-02", "type": "Feature", "geometry": { "type": "Point", "coordinates": [6.496097, 44.567119] }, "properties": { "nr": "49", "booknr": "49", "confirmed": "true", "name": "Embrun (Hautes-Alpes)", "shortname": "Embrun" } },
      { "id": "48-01", "type": "Feature", "geometry": { "type": "Point", "coordinates": [0.722703, 45.183827] }, "properties": { "nr": "50", "booknr": "50", "confirmed": "true", "name": "Périgeux (Dordogne)", "shortname": "Périgeux" } },
      { "id": "48-02", "type": "Feature", "geometry": { "type": "Point", "coordinates": [3.312356, 43.502279] }, "properties": { "nr": "48", "booknr": "48", "confirmed": "true", "name": "Roujan (Hérault)", "shortname": "Roujan" } },
      { "id": "49-01", "type": "Feature", "geometry": { "type": "Point", "coordinates": [1.421679, 49.247570] }, "properties": { "nr": "51", "booknr": "51", "confirmed": "true", "name": "Les Andelys (Eure)", "shortname": "Les Andelys" } },
      { "id": "50-01", "type": "Feature", "geometry": { "type": "Point", "coordinates": [-0.041671, 45.603861] }, "properties": { "nr": "52", "booknr": "52", "confirmed": "true", "name": "Château-neuf-sur Charente (Charente)", "shortname": "Château-neuf-sur Charente" } },
      { "id": "51-01", "type": "Feature", "geometry": { "type": "Point", "coordinates": [-1.756949, 48.549873] }, "properties": { "nr": "53", "booknr": "53", "confirmed": "true", "name": "Dol-de-Bretagne (Ille-et-Vilaine)", "shortname": "Dol-de-Bretagne" } },
      { "id": "52-01", "type": "Feature", "geometry": { "type": "Point", "coordinates": [0.405220, 47.318461] }, "properties": { "nr": "54", "booknr": "54", "confirmed": "true", "name": "Langeais (Indre-et-Loire)", "shortname": "Langeais" } },
      { "id": "53-01", "type": "Feature", "geometry": { "type": "Point", "coordinates": [1.797997, 45.648377] }, "properties": { "nr": "55", "booknr": "55", "confirmed": "true", "name": "Eglise-aux-Bois (Haute-Vienne)", "shortname": "Eglise-aux-Bois" } },
      { "id": "54-01", "type": "Feature", "geometry": { "type": "Point", "coordinates": [5.631978, 45.243393] }, "properties": { "nr": "56", "booknr": "56", "confirmed": "true", "name": "Engins (Isère)", "shortname": "Engins" } },
      { "id": "55-01", "type": "Feature", "geometry": { "type": "Point", "coordinates": [7.230461, 48.694600] }, "properties": { "nr": "57", "booknr": "57", "confirmed": "true", "name": "Schacheneck (Moselle)", "shortname": "Schacheneck" } },
      { "id": "56-01", "type": "Feature", "geometry": { "type": "Point", "coordinates": [7.357909, 48.077854] }, "properties": { "nr": "59", "booknr": "59", "confirmed": "true", "name": "Colmar (Haut Rhin)", "shortname": "Colmar" } },
      { "id": "56-02", "type": "Feature", "geometry": { "type": "Point", "coordinates": [7.751725, 48.582130] }, "properties": { "nr": "58", "booknr": "58", "confirmed": "true", "name": "Strasbourg (Bas-Rhin)", "shortname": "Strasbourg" } },
      { "id": "57-01", "type": "Feature", "geometry": { "type": "Point", "coordinates": [2.081550, 49.432507] }, "properties": { "nr": "60", "booknr": "60", "confirmed": "true", "name": "Beauvaix (Oise)", "shortname": "Beauvaix" } },
      { "id": "58-01", "type": "Feature", "geometry": { "type": "Point", "coordinates": [-1.623614, 49.642235] }, "properties": { "nr": "61", "booknr": "61", "confirmed": "true", "name": "Cherbourg (Manche)", "shortname": "Cherbourg" } },
      { "id": "59-01", "type": "Feature", "geometry": { "type": "Point", "coordinates": [-1.793652, 48.002255] }, "properties": { "nr": "62", "booknr": "62", "confirmed": "true", "name": "Saint-Samson (Ille-et-Vilaine)", "shortname": "Saint-Samson" } },
      { "id": "60-01", "type": "Feature", "geometry": { "type": "Point", "coordinates": [1.071770, 45.303629] }, "properties": { "nr": "63", "booknr": "63", "confirmed": "true", "name": "Saint-Raphaël-en-Dordogne (Dordogne)", "shortname": "Saint-Raphaël-en-Dordogne" } },
      { "id": "61-02", "type": "Feature", "geometry": { "type": "Point", "coordinates": [7.115012, 43.721296] }, "properties": { "nr": "64", "booknr": "64", "confirmed": "true", "name": "Vence (Alpes-Maritimes)", "shortname": "Vence" } },
      { "id": "62-01", "type": "Feature", "geometry": { "type": "Point", "coordinates": [2.349859, 48.853123] }, "properties": { "nr": "76", "booknr": "76", "confirmed": "true", "name": "Paris (Seine)", "shortname": "Paris" } },
      { "id": "63-01", "type": "Feature", "geometry": { "type": "Point", "coordinates": [0.682585, 47.393163] }, "properties": { "nr": "66", "booknr": "66", "confirmed": "true", "name": "Tours (Indre-et-Loire)", "shortname": "Tours" } },
      { "id": "64-01", "type": "Feature", "geometry": { "type": "Point", "coordinates": [4.089367, 44.729953] }, "properties": { "nr": "67", "booknr": "67", "confirmed": "true", "name": "Mazan (Ardèche)", "shortname": "Mazan" } },
      { "id": "65-01", "type": "Feature", "geometry": { "type": "Point", "coordinates": [4.632676, 43.679946] }, "properties": { "nr": "68", "booknr": "68", "confirmed": "true", "name": "Arles (Bouches-du-Rhône)", "shortname": "Arles" } },
      { "id": "66-01", "type": "Feature", "geometry": { "type": "Point", "coordinates": [0.997054, 45.376550] }, "properties": { "nr": "69", "booknr": "69", "confirmed": "true", "name": "Primuliacum (Dordogne)", "shortname": "Primuliacum" } },
      { "id": "67-01", "type": "Feature", "geometry": { "type": "Point", "coordinates": [4.299413, 46.944768] }, "properties": { "nr": "70", "booknr": "70", "confirmed": "true", "name": "Autun (Saône-et-Loire)", "shortname": "Autun" } },
      { "id": "68-01", "type": "Feature", "geometry": { "type": "Point", "coordinates": [-0.703552, 49.275119] }, "properties": { "nr": "71", "booknr": "71", "confirmed": "true", "name": "Saint-Vigor-le-Grand (Calvados)", "shortname": "Saint-Vigor-le-Grand" } },
      { "id": "69-01", "type": "Feature", "geometry": { "type": "Point", "coordinates": [4.833115, 43.788577] }, "properties": { "nr": "72", "booknr": "72", "confirmed": "true", "name": "Saint-Remy-de-Provence (Bouches-du-Rhône)", "shortname": "Saint-Remy-de-Provence" } },
      { "id": "71-01", "type": "Feature", "geometry": { "type": "Point", "coordinates": [-3.957092, 48.413474] }, "properties": { "nr": "73", "booknr": "73", "confirmed": "true", "name": "Commana (Finistère)", "shortname": "Commana" } },
      { "id": "72-01", "type": "Feature", "geometry": { "type": "Point", "coordinates": [-2.547947, 47.953495] }, "properties": { "nr": "74", "booknr": "74", "confirmed": "true", "name": "Josselin (Morbihan)", "shortname": "Josselin" } },
      { "id": "73-01", "type": "Feature", "geometry": { "type": "Point", "coordinates": [-0.587870, 44.826206] }, "properties": { "nr": "75", "booknr": "75", "confirmed": "true", "name": "Bordeaux (Gironde)", "shortname": "Bordeaux" } }
    ]
  }
